<?xml version="1.0" encoding="UTF-8" ?>
<tiendas>
<informacion id="8">
<tienda id="183">
<nombre>Masxmenos Sabana</nombre>
<direccion>Calle 42 avenida 5 San José.</direccion>
<lat>9.940361</lat><longi>-84.097939</longi>
<horario>Lunes a Sábado: 7:00am a 12:00am, Domingo: 7:00am a 9:00pm</horario>
<telefono><a href="tel:+50622480968">2248-0968</a></telefono>
</tienda>
</informacion>
<informacion id="71">
<tienda id="185">
<nombre>Masxmenos Coronado</nombre>
<direccion>300mts este de la Clínica de Coronado</direccion>
<lat>9.977642</lat><longi>-84.010391</longi>
<horario>Lunes a Sábado: 7:00am a 12:00pm, Domingo: 7:00am a 9:00pm</horario>
<telefono><a href="tel:+50622298627">2229-8627</a> <a href="tel:+50622298456">/ 2229-8456</a></telefono>
</tienda>
</informacion>
<informacion id="133">
<tienda id="186">
<nombre>Masxmenos Santo Domingo</nombre>
<direccion>De la Basílica 300mts norte y 200mts este, Santo Domingo de Heredia</direccion>
<lat>10.013482</lat><longi>-84.079742</longi>
<horario>Lunes a Sábado: 6:30am a 12:00am, Domingo: 6:30:am a 10:00pm</horario>
<telefono><a href="tel:+50622448180">2244-8180</a>/82/83</telefono>
</tienda>
</informacion>
<informacion id="122">
<tienda id="187"><nombre>Masxmenos Heredia</nombre>
<direccion>Costado oeste del Mercado Central, 50mts oeste frente a panadería Leandro en Heredia.</direccion>
<lat>9.996513</lat><longi>-84.118924</longi>
<horario>Lunes a Sábado: 6:30am a 12:00pm, Domingo: 6:00am a 9:00pm</horario>
<telefono><a href="tel:+50622610007">22610007</a>//06//08</telefono>
</tienda>
</informacion>
<informacion id="445">
<tienda id="188"><nombre>Masxmenos Jacó</nombre>
<direccion>50mts sur de la sucursal del Banco Nacional de Jacó  </direccion>
<lat>9.622414</lat><longi>-84.627342</longi>
<horario>Lunes a Sábado: 6:00am a 12:00pm, Domingo 7:00am a 10:00pm</horario>
<telefono><a href="tel:+50626433027">26433027</a> / <a href="tel:+50626432528">2643-2528</a> /(Express) <a href="tel:+50626433611">2643-3611</a></telefono>
</tienda>
</informacion>
<informacion id="169">
<tienda id="189">
<nombre>Masxmenos Alajuela</nombre>
<direccion>250mts antes de llegar a McDonald, Barrio La Tropicana</direccion>
<lat>10.009858</lat><longi>-84.210693</longi>
<horario>Viernes a Sábado: 8:00am a10:00pm, Domingo a Jueves: 8:00am a 9:00pm</horario>
<telefono><a href="tel:+50624434959">2443-4959</a><a href="tel:+50624434975"> / 2443-4975</a></telefono>
</tienda>
</informacion>
<informacion id="169">
<tienda id="190">
<nombre>Masxmenos Alajuela Centro</nombre>
<direccion>Frente al costado norte del Mercado Municipal, Alajuela</direccion>
<lat>10.016646</lat>
<longi>-84.215671</longi>
<horario>Lunes a Sábado: 7:00am a 12:00pm, Domingo: 7:00am a 9:00pm</horario>
<telefono><a href="tel:+50626432528">2643-2528</a> <a href="tel:+50624434041">2443-4041</a> /<a href="tel:+50624417676">2441-7676</a> / <a href="tel:+50622434090">22434090</a></telefono>
</tienda>
</informacion>
<informacion id="159">
<tienda id="191">
<nombre>Masxmenos Las Flores</nombre>
<direccion>Centro comercial Mall Paseo De Las Flores, frente a universidad Interamericana, carretera principal hacia Heredia.</direccion>
<lat>9.985567</lat><longi>-8.411077</longi>
<horario>Lunes a Sábado: 7:00am a 9:00pm, Domingo: 7:00am a 8:00pm</horario>
<telefono><a href="tel:+50622373215">2237-3215</a>/17/24</telefono>
</tienda>
</informacion>
<informacion id="9">
<tienda id="192"><nombre>Masxmenos Rohrmoser</nombre>
<direccion>Centro comercial plaza Rohrmoser, 250mts este de la embajada Estados Unidos de América</direccion>
<lat>9.940488</lat><longi>-84.121456</longi>
<horario>Lunes a Sábado: 8:00am a 12:00pm, Domingo: 8:00am a 9:00pm</horario>
<telefono><a href="tel:+50622313815">2231-3815</a>  /<a href="tel:+50622313936">2231-3936</a> //3691</telefono>
</tienda>
</informacion>
<informacion id="162">
<tienda id="193"><nombre>Masxmenos San Pablo</nombre>
<direccion>Carretera a santo domingo de Heredia</direccion>
<lat>9.988578</lat><longi>-8.409884</longi>
<horario>Lunes a Sábado: 7:00am a 12:00pm, Domingo: 7:00am a 9:00pm</horario>
<telefono><a href="tel:+50622607163"> 2260-7163</a> / <a href="tel:+50622607024"> 2260-7024</a>///63</telefono>
</tienda>
</informacion>
<informacion id="158">
<tienda id="194">
<nombre>Masxmenos Belen</nombre>
<direccion>800mts este Iglesia Católica, frente a Pedregal</direccion>
<lat>9.980128</lat><longi>-84.1788025293461</longi>
<horario>Lunes a Sábado: 7:00am a 12:00pm, Domingo: 7:00am a 10:00pm</horario>
<telefono><a href="tel:+50622397795"> 2239-7795</a> </telefono>
</tienda>
</informacion>
<informacion id="53">
<tienda id="195">
<nombre>Masxmenos San Gerardo</nombre>
<direccion>Centro comercial Novacentro, del cruce de Moravia, 125mts al norte</direccion>
<lat>9.951346</lat><longi>-8.405004</longi>
<horario>Lunes a Sábado: 9:00am a 12:00am, Domingo: 8:00am a 9:00pm</horario>
<telefono><a href="tel:+50622242140"> 2224-2140</a> </telefono>
</tienda>
</informacion>
<informacion id="1">
<tienda id="196"><nombre>Masxmenos Cuesta Moras</nombre>
<direccion>Pie de Cuesta de Moras, calle 11 y 13, avenida central</direccion>
<lat>9.93378</lat><longi>-84.073313</longi>
<horario>Lunes a Sábado: 8:00am a12:00am, Domingo: 8:00am a 10:00pm</horario>
<telefono><a href="tel:+50622337811">2233-7811</a> /<a href="tel:+50622553194">2255-3194</a> </telefono>
</tienda>
</informacion>
<informacion id="447">
<tienda id="197">
<nombre>Masxmenos Limón</nombre>
<direccion>Diagonal al costado noroeste del Mercado Municipal de Limón</direccion>
<lat>9.993544</lat><longi>-8.302807</longi>
<horario>Lunes a Sábado: 7:00am a 12:00pm, Domingo: 8:00am a 10:00pm</horario>
<telefono><a href="tel:+50627981985">2798-1985</a>  / <a href="tel:+50627980070">27980070</a></telefono>
</tienda>
</informacion>
<informacion id="14">
<tienda id="198">
<nombre>Masxmenos Escazu</nombre>
<direccion>Centro comercial de Escazú, San Rafael de Escazú</direccion>
<lat>9.928834</lat><longi>-84.134138</longi>
<horario>Lunes a Sábado: 8:00am a 9:00pm, Domingo: 8:00am a 8:00pm</horario>
<telefono><a href="tel:+50622280954">2228-0954</a> </telefono>
</tienda>
</informacion>
<informacion id="60">
<tienda id="199">
<nombre>Masxmenos Santa Ana</nombre>
<direccion>400mts norte de la Cruz Roja de Santa Ana</direccion>
<lat>9.937112</lat><longi>-84.188286</longi>
<horario>Lunes a Sábado: 6:30am a 12:00pm, Domingo: 6:30am a 9:00pm</horario>
<telefono><a href="tel:+50625820211">2582-0211</a> / <a href="tel:+50625820213">2582-0213</a>/ <a href="tel:+50625820215">2582-0215</a> / <a href="tel:+50625820217"> 2582-0217</a></telefono>
</tienda>
</informacion>
<informacion id="81">
<tienda id="200">
<nombre>Masxmenos Tibas</nombre>
<direccion>Centro Comercial Feria Del Norte Tibás</direccion>
<lat>9.958368</lat><longi>-84.077286</longi>
<horario>Lunes a Sábado: 6:30am a 12:00am, Domingo: 7:00am a 9:00pm</horario>
<telefono><a href="tel:+50622350535">2235-0535</a>/<a href="tel:+50622972838">2297-2838</a></telefono>
</tienda>
</informacion>
<informacion id="451">
<tienda id="201">
<nombre>Masxmenos Guapiles</nombre>
<direccion>800mts este de la Iglesia Católica de Guápiles</direccion>
<lat>10.213484</lat><longi>-83.784552</longi>
<horario>Lunes a Sábado: 7:00am a 12:00pm, Domingo: 7:00am a 9:00pm</horario>
<telefono><a href="tel:+50627103146">2710-3146</a>//45</telefono>
</tienda>
</informacion>
<informacion id="19">
<tienda id="202">
<nombre>Masxmenos San Antonio</nombre>
<direccion>Frente al cementerio de San Antonio de Desamparados.</direccion>
<lat>9.898004263477752</lat><longi>-84.05344804875575</longi>
<horario>Lunes a Sábado: 7:00am a 9:00pm, Domingo: 7:00am a 8:00pm</horario>
<telefono><a href="tel:+50622190137">2219-0137 </a></telefono>
</tienda>
</informacion>
<informacion id="86">
<tienda id="203">
<nombre>Masxmenos Linconl</nombre>
<direccion>San José, Moravia,  Los Colegios, Plaza Lincoln,  500mts norte de la escuela Pilar Jiménez, antiguo colegio Lincoln.</direccion>
<lat>9.961765</lat><longi>-84.055254</longi>
<horario></horario>
<telefono></telefono>
</tienda>

</informacion>
<informacion id="15">
<tienda id="204">
<nombre>Masxmenos Desamparados</nombre>
<direccion>Centro Comercial Desamparados, frente al Liceo Monseñor Sanabria Odio.</direccion>
<lat>989.957</lat><longi>-84.068271</longi>
<horario>Lunes a Sábado: 10:00am a 9:00pm, Domingo: 10:00am a 8:00pm</horario>
<telefono><a href="tel:+50622503355">2250-3355 </a></telefono>
</tienda>
</informacion>
<informacion id="89">
<tienda id="205">
<nombre>Masxmenos La Granja</nombre>
<direccion>Barrio La Granja contiguo a Bomba el Higuerón</direccion>
<lat>9.931061</lat><longi>-84.047207</longi>
<horario>Lunes a Sábado: 8:00am a 12:00pm, Domingo: 8:00am a 10:00pm</horario>
<telefono><a href="tel:+50622250636">2225-0636</a></telefono>
</tienda>
</informacion>
<informacion id="53">
<tienda id="206">
<nombre>Masxmenos Guadalupe</nombre>
<direccion>225mts oeste del Parque Central de Guadalupe, contiguo a la Municipalidad</direccion>
<lat>9.945833</lat><longi>-84.055879</longi>
<horario>Lunes a Sábado: 7:00am a 12:00pm, Domingo: 7:00am a 9:00pm</horario>
<telefono><a href="tel:+50622251758">2225-1758</a> /<a href="tel:+50622835341">2283-5341</a> </telefono>
</tienda>
</informacion>
<informacion id="90">
<tienda id="208">
<nombre>Masxmenos Sabanilla</nombre>
<direccion>50mts oeste de la Iglesia Católica de Sabanilla Montes De Oca</direccion>
<lat>9.944303</lat><longi>-84.034413</longi>
<horario>Lunes a Sábado: 7:00am a 12:00pm, Domingo: 8:00am a 9:00pm</horario>
<telefono><a href="tel:+50622805106">2280-5106</a>  / <a href="tel:+50622805221">2280-5221</a>   / <a href="tel:+50622835761">2283-5761</a>  </telefono>
</tienda>

</informacion>
<informacion id="296">
<tienda id="209">
<nombre>Masxmenos Tres Ríos</nombre>
<direccion>100mts este cementerio de Tres Ríos ruta 251 (calle 5)</direccion>
<lat>9.908584080520237</lat><longi>-83.98884395417697</longi>
<horario>Lunes a Sábado: 7:00am a 12:00am, Domingo: 7:00am a 9:00pm</horario>
<telefono><a href="tel:+50622797453">2279-7453</a>  </telefono>
</tienda>
</informacion> 
</tiendas>  